[{"type":"Feature","geometry":{"type":"Point","coordinates":[-157.8585,21.3062]},"properties":{"name":"Honolulu"}},{"type":"Feature","geometry":{"type":"Point","coordinates":[-98.6154,34.6131]},"properties":{"name":"Cache"}},{"type":"Feature","geometry":{"type":"Point","coordinates":[-95.1356,41.9119]},"properties":{"name":"Aspinwall"}},{"type":"Feature","geometry":{"type":"Point","coordinates":[-72.2955,42.9627]},"properties":{"name":"Keene"}},{"type":"Feature","geometry":{"type":"Point","coordinates":[-87.9166,38.2069]},"properties":{"name":"Griffin"}},{"type":"Feature","geometry":{"type":"Point","coordinates":[-114.3968,37.8981]},"properties":{"name":"Pioche"}},{"type":"Feature","geometry":{"type":"Point","coordinates":[-86.6339,37.1834]},"properties":{"name":"Woodbury"}},{"type":"Feature","geometry":{"type":"Point","coordinates":[-80.2073,36.0275]},"properties":{"name":"Winston Salem"}},{"type":"Feature","geometry":{"type":"Point","coordinates":[-94.838,44.0513]},"properties":{"name":"Darfur"}},{"type":"Feature","geometry":{"type":"Point","coordinates":[-93.9194,42.7581]},"properties":{"name":"Goldfield"}},{"type":"Feature","geometry":{"type":"Point","coordinates":[-83.3269,44.548]},"properties":{"name":"Greenbush"}},{"type":"Feature","geometry":{"type":"Point","coordinates":[-79.6916,41.4319]},"properties":{"name":"Oil City"}},{"type":"Feature","geometry":{"type":"Point","coordinates":[-110.5051,35.7933]},"properties":{"name":"Second Mesa"}},{"type":"Feature","geometry":{"type":"Point","coordinates":[-115.1372,36.175]},"properties":{"name":"Las Vegas"}},{"type":"Feature","geometry":{"type":"Point","coordinates":[-71.0671,41.7562]},"properties":{"name":"Dartmouth"}},{"type":"Feature","geometry":{"type":"Point","coordinates":[-89.568,40.818]},"properties":{"name":"Mossville"}},{"type":"Feature","geometry":{"type":"Point","coordinates":[-112.0015,47.6143]},"properties":{"name":"Fairfield"}},{"type":"Feature","geometry":{"type":"Point","coordinates":[-72.8245,43.9849]},"properties":{"name":"Granville"}},{"type":"Feature","geometry":{"type":"Point","coordinates":[-89.9575,41.1095]},"properties":{"name":"La Fayette"}},{"type":"Feature","geometry":{"type":"Point","coordinates":[-84.9176,34.3595]},"properties":{"name":"Adairsville"}},{"type":"Feature","geometry":{"type":"Point","coordinates":[-92.1825,31.9648]},"properties":{"name":"Kelly"}},{"type":"Feature","geometry":{"type":"Point","coordinates":[-117.9756,44.8776]},"properties":{"name":"Haines"}},{"type":"Feature","geometry":{"type":"Point","coordinates":[-102.331,43.2397]},"properties":{"name":"Porcupine"}},{"type":"Feature","geometry":{"type":"Point","coordinates":[-80.1629,39.2687]},"properties":{"name":"Rosemont"}},{"type":"Feature","geometry":{"type":"Point","coordinates":[-97.7713,30.3264]},"properties":{"name":"Austin"}},{"type":"Feature","geometry":{"type":"Point","coordinates":[-95.3633,29.7633]},"properties":{"name":"Houston"}},{"type":"Feature","geometry":{"type":"Point","coordinates":[-70.4469,44.374]},"properties":{"name":"Sumner"}},{"type":"Feature","geometry":{"type":"Point","coordinates":[-71.474,41.6498]},"properties":{"name":"East Greenwich"}},{"type":"Feature","geometry":{"type":"Point","coordinates":[-88.5654,47.1367]},"properties":{"name":"Hancock"}},{"type":"Feature","geometry":{"type":"Point","coordinates":[-85.0946,44.3767]},"properties":{"name":"Lake City"}},{"type":"Feature","geometry":{"type":"Point","coordinates":[null,null]},"properties":{"name":"Richmond"}},{"type":"Feature","geometry":{"type":"Point","coordinates":[-71.248,42.3441]},"properties":{"name":"Auburndale"}},{"type":"Feature","geometry":{"type":"Point","coordinates":[-121.0191,37.6566]},"properties":{"name":"Modesto"}},{"type":"Feature","geometry":{"type":"Point","coordinates":[-81.2995,28.9973]},"properties":{"name":"Deland"}},{"type":"Feature","geometry":{"type":"Point","coordinates":[null,null]},"properties":{"name":"Florence"}},{"type":"Feature","geometry":{"type":"Point","coordinates":[-83.3632,41.5686]},"properties":{"name":"Clay Center"}},{"type":"Feature","geometry":{"type":"Point","coordinates":[-74.0038,40.7152]},"properties":{"name":"New York"}},{"type":"Feature","geometry":{"type":"Point","coordinates":[-75.2694,44.7184]},"properties":{"name":"Lisbon"}},{"type":"Feature","geometry":{"type":"Point","coordinates":[-120.5907,35.1186]},"properties":{"name":"Arroyo Grande"}},{"type":"Feature","geometry":{"type":"Point","coordinates":[-118.2437,34.0522]},"properties":{"name":"Los Angeles"}},{"type":"Feature","geometry":{"type":"Point","coordinates":[-79.931,40.6478]},"properties":{"name":"Bakerstown"}},{"type":"Feature","geometry":{"type":"Point","coordinates":[-109.8435,46.4477]},"properties":{"name":"Harlowton"}},{"type":"Feature","geometry":{"type":"Point","coordinates":[null,null]},"properties":{"name":"Gainesville"}},{"type":"Feature","geometry":{"type":"Point","coordinates":[-72.1239,44.6178]},"properties":{"name":"Sheffield"}},{"type":"Feature","geometry":{"type":"Point","coordinates":[-78.5578,38.2705]},"properties":{"name":"Dyke"}},{"type":"Feature","geometry":{"type":"Point","coordinates":[-96.6153,33.1976]},"properties":{"name":"Mc Kinney"}},{"type":"Feature","geometry":{"type":"Point","coordinates":[-79.7172,40.2455]},"properties":{"name":"Herminie"}},{"type":"Feature","geometry":{"type":"Point","coordinates":[null,null]},"properties":{"name":"Young America"}},{"type":"Feature","geometry":{"type":"Point","coordinates":[-122.0263,37.9504]},"properties":{"name":"Concord"}},{"type":"Feature","geometry":{"type":"Point","coordinates":[-121.3286,38.5662]},"properties":{"name":"Sacramento"}},{"type":"Feature","geometry":{"type":"Point","coordinates":[-73.1297,40.7382]},"properties":{"name":"Oakdale"}},{"type":"Feature","geometry":{"type":"Point","coordinates":[-118.7774,39.4735]},"properties":{"name":"Fallon"}},{"type":"Feature","geometry":{"type":"Point","coordinates":[-86.3919,39.6893]},"properties":{"name":"Plainfield"}},{"type":"Feature","geometry":{"type":"Point","coordinates":[-84.1436,37.0156]},"properties":{"name":"Keavy"}},{"type":"Feature","geometry":{"type":"Point","coordinates":[-79.5453,34.5805]},"properties":{"name":"Clio"}},{"type":"Feature","geometry":{"type":"Point","coordinates":[-74.6985,40.8985]},"properties":{"name":"Netcong"}},{"type":"Feature","geometry":{"type":"Point","coordinates":[-121.6438,36.7103]},"properties":{"name":"Salinas"}},{"type":"Feature","geometry":{"type":"Point","coordinates":[-96.86,40.9091]},"properties":{"name":"Malcolm"}},{"type":"Feature","geometry":{"type":"Point","coordinates":[-79.8556,38.3636]},"properties":{"name":"Dunmore"}},{"type":"Feature","geometry":{"type":"Point","coordinates":[-80.2779,39.4209]},"properties":{"name":"Enterprise"}},{"type":"Feature","geometry":{"type":"Point","coordinates":[-90.6063,41.613]},"properties":{"name":"Davenport"}},{"type":"Feature","geometry":{"type":"Point","coordinates":[-72.7963,43.6634]},"properties":{"name":"Killington"}},{"type":"Feature","geometry":{"type":"Point","coordinates":[-73.7474,40.6205]},"properties":{"name":"Inwood"}},{"type":"Feature","geometry":{"type":"Point","coordinates":[-71.2424,43.3566]},"properties":{"name":"Center Barnstead"}},{"type":"Feature","geometry":{"type":"Point","coordinates":[-81.7636,26.1938]},"properties":{"name":"Naples"}},{"type":"Feature","geometry":{"type":"Point","coordinates":[null,null]},"properties":{"name":"Saginaw"}},{"type":"Feature","geometry":{"type":"Point","coordinates":[-83.1801,42.3349]},"properties":{"name":"Dearborn"}},{"type":"Feature","geometry":{"type":"Point","coordinates":[-94.2122,43.2062]},"properties":{"name":"Burt"}},{"type":"Feature","geometry":{"type":"Point","coordinates":[-96.9999,33.0532]},"properties":{"name":"Lewisville"}},{"type":"Feature","geometry":{"type":"Point","coordinates":[-88.1335,38.365]},"properties":{"name":"Ellery"}},{"type":"Feature","geometry":{"type":"Point","coordinates":[-97.1416,32.5773]},"properties":{"name":"Mansfield"}},{"type":"Feature","geometry":{"type":"Point","coordinates":[-90.4082,29.9668]},"properties":{"name":"Hahnville"}},{"type":"Feature","geometry":{"type":"Point","coordinates":[-100.9175,32.7451]},"properties":{"name":"Snyder"}},{"type":"Feature","geometry":{"type":"Point","coordinates":[-82.8046,42.941]},"properties":{"name":"Memphis"}},{"type":"Feature","geometry":{"type":"Point","coordinates":[-81.6626,30.4507]},"properties":{"name":"Jacksonville"}},{"type":"Feature","geometry":{"type":"Point","coordinates":[-78.0645,39.8127]},"properties":{"name":"Big Cove Tannery"}},{"type":"Feature","geometry":{"type":"Point","coordinates":[-81.9251,35.3601]},"properties":{"name":"Spindale"}},{"type":"Feature","geometry":{"type":"Point","coordinates":[-80.5803,41.9345]},"properties":{"name":"Conneaut"}},{"type":"Feature","geometry":{"type":"Point","coordinates":[-75.9029,36.3045]},"properties":{"name":"Aydlett"}},{"type":"Feature","geometry":{"type":"Point","coordinates":[-80.3592,27.4493]},"properties":{"name":"Fort Pierce"}},{"type":"Feature","geometry":{"type":"Point","coordinates":[-96.7009,35.5105]},"properties":{"name":"Prague"}},{"type":"Feature","geometry":{"type":"Point","coordinates":[-92.5457,35.2749]},"properties":{"name":"Springfield"}},{"type":"Feature","geometry":{"type":"Point","coordinates":[-87.2037,35.5301]},"properties":{"name":"Mount Pleasant"}},{"type":"Feature","geometry":{"type":"Point","coordinates":[-76.2629,37.4296]},"properties":{"name":"Diggs"}},{"type":"Feature","geometry":{"type":"Point","coordinates":[-85.8881,30.4352]},"properties":{"name":"Ebro"}},{"type":"Feature","geometry":{"type":"Point","coordinates":[-81.8379,37.7307]},"properties":{"name":"Mallory"}},{"type":"Feature","geometry":{"type":"Point","coordinates":[-83.4213,31.1251]},"properties":{"name":"Adel"}},{"type":"Feature","geometry":{"type":"Point","coordinates":[-85.2432,34.9506]},"properties":{"name":"Fort Oglethorpe"}},{"type":"Feature","geometry":{"type":"Point","coordinates":[-81.343,28.4317]},"properties":{"name":"Orlando"}},{"type":"Feature","geometry":{"type":"Point","coordinates":[-76.6093,37.7928]},"properties":{"name":"Morattico"}},{"type":"Feature","geometry":{"type":"Point","coordinates":[-97.0854,39.6847]},"properties":{"name":"Linn"}},{"type":"Feature","geometry":{"type":"Point","coordinates":[-87.2137,31.3058]},"properties":{"name":"Range"}},{"type":"Feature","geometry":{"type":"Point","coordinates":[-72.6437,41.8526]},"properties":{"name":"Windsor"}},{"type":"Feature","geometry":{"type":"Point","coordinates":[-77.72,39.6418]},"properties":{"name":"Hagerstown"}},{"type":"Feature","geometry":{"type":"Point","coordinates":[-84.0379,33.9604]},"properties":{"name":"Duluth"}},{"type":"Feature","geometry":{"type":"Point","coordinates":[-84.3582,33.8482]},"properties":{"name":"Atlanta"}},{"type":"Feature","geometry":{"type":"Point","coordinates":[-89.0833,42.301]},"properties":{"name":"Rockford"}},{"type":"Feature","geometry":{"type":"Point","coordinates":[-106.3,31.6948]},"properties":{"name":"El Paso"}},{"type":"Feature","geometry":{"type":"Point","coordinates":[-73.8093,42.429]},"properties":{"name":"Hannacroix"}},{"type":"Feature","geometry":{"type":"Point","coordinates":[-117.2606,34.1426]},"properties":{"name":"San Bernardino"}},{"type":"Feature","geometry":{"type":"Point","coordinates":[-89.8501,39.3838]},"properties":{"name":"Girard"}},{"type":"Feature","geometry":{"type":"Point","coordinates":[-86.741,36.1379]},"properties":{"name":"Nashville"}},{"type":"Feature","geometry":{"type":"Point","coordinates":[-89.1168,32.4358]},"properties":{"name":"Decatur"}},{"type":"Feature","geometry":{"type":"Point","coordinates":[-72.1762,44.7481]},"properties":{"name":"West Glover"}},{"type":"Feature","geometry":{"type":"Point","coordinates":[-74.4639,40.5897]},"properties":{"name":"Dunellen"}},{"type":"Feature","geometry":{"type":"Point","coordinates":[-77.2125,40.6479]},"properties":{"name":"Cocolamus"}},{"type":"Feature","geometry":{"type":"Point","coordinates":[-96.8403,33.8343]},"properties":{"name":"Gordonville"}},{"type":"Feature","geometry":{"type":"Point","coordinates":[-95.4469,41.5339]},"properties":{"name":"Shelby"}},{"type":"Feature","geometry":{"type":"Point","coordinates":[-94.6452,38.9575]},"properties":{"name":"Shawnee Mission"}},{"type":"Feature","geometry":{"type":"Point","coordinates":[-84.2627,30.5185]},"properties":{"name":"Tallahassee"}},{"type":"Feature","geometry":{"type":"Point","coordinates":[-83.8496,33.5293]},"properties":{"name":"Covington"}},{"type":"Feature","geometry":{"type":"Point","coordinates":[-84.8787,41.4287]},"properties":{"name":"Butler"}},{"type":"Feature","geometry":{"type":"Point","coordinates":[-122.3724,47.8061]},"properties":{"name":"Edmonds"}},{"type":"Feature","geometry":{"type":"Point","coordinates":[-96.9519,44.0683]},"properties":{"name":"Rutland"}},{"type":"Feature","geometry":{"type":"Point","coordinates":[-84.7901,39.9899]},"properties":{"name":"Hollansburg"}},{"type":"Feature","geometry":{"type":"Point","coordinates":[-83.3632,41.5686]},"properties":{"name":"Clay Center"}},{"type":"Feature","geometry":{"type":"Point","coordinates":[-74.066,40.7321]},"properties":{"name":"Jersey City"}},{"type":"Feature","geometry":{"type":"Point","coordinates":[-82.4626,37.3316]},"properties":{"name":"Rockhouse"}},{"type":"Feature","geometry":{"type":"Point","coordinates":[-85.6282,42.5936]},"properties":{"name":"Shelbyville"}},{"type":"Feature","geometry":{"type":"Point","coordinates":[-113.0619,37.6775]},"properties":{"name":"Cedar City"}},{"type":"Feature","geometry":{"type":"Point","coordinates":[-72.1309,42.9906]},"properties":{"name":"Nelson"}},{"type":"Feature","geometry":{"type":"Point","coordinates":[-88.0927,40.5241]},"properties":{"name":"Loda"}},{"type":"Feature","geometry":{"type":"Point","coordinates":[-117.8978,34.0653]},"properties":{"name":"West Covina"}},{"type":"Feature","geometry":{"type":"Point","coordinates":[-81.462,34.7865]},"properties":{"name":"Lockhart"}},{"type":"Feature","geometry":{"type":"Point","coordinates":[-79.0616,39.8646]},"properties":{"name":"Garrett"}},{"type":"Feature","geometry":{"type":"Point","coordinates":[-122.5937,37.9883]},"properties":{"name":"Fairfax"}},{"type":"Feature","geometry":{"type":"Point","coordinates":[-81.5488,41.0695]},"properties":{"name":"Akron"}},{"type":"Feature","geometry":{"type":"Point","coordinates":[-85.5244,42.8187]},"properties":{"name":"Caledonia"}},{"type":"Feature","geometry":{"type":"Point","coordinates":[-76.5937,39.836]},"properties":{"name":"Felton"}},{"type":"Feature","geometry":{"type":"Point","coordinates":[null,null]},"properties":{"name":"Warren"}},{"type":"Feature","geometry":{"type":"Point","coordinates":[-79.1615,40.7056]},"properties":{"name":"Chambersville"}},{"type":"Feature","geometry":{"type":"Point","coordinates":[-79.2533,40.4413]},"properties":{"name":"Blairsville"}},{"type":"Feature","geometry":{"type":"Point","coordinates":[-78.68,33.816]},"properties":{"name":"North Myrtle Beach"}},{"type":"Feature","geometry":{"type":"Point","coordinates":[-119.9887,47.6295]},"properties":{"name":"Waterville"}},{"type":"Feature","geometry":{"type":"Point","coordinates":[-95.2679,43.0488]},"properties":{"name":"Royal"}},{"type":"Feature","geometry":{"type":"Point","coordinates":[null,null]},"properties":{"name":"Chester Depot"}},{"type":"Feature","geometry":{"type":"Point","coordinates":[null,null]},"properties":{"name":"Steelville"}},{"type":"Feature","geometry":{"type":"Point","coordinates":[-69.2479,44.1271]},"properties":{"name":"Warren"}},{"type":"Feature","geometry":{"type":"Point","coordinates":[-74.3047,42.6615]},"properties":{"name":"Schoharie"}},{"type":"Feature","geometry":{"type":"Point","coordinates":[-83.9099,42.4596]},"properties":{"name":"Pinckney"}},{"type":"Feature","geometry":{"type":"Point","coordinates":[-118.2916,37.1679]},"properties":{"name":"Big Pine"}},{"type":"Feature","geometry":{"type":"Point","coordinates":[-96.0251,36.064]},"properties":{"name":"Tulsa"}},{"type":"Feature","geometry":{"type":"Point","coordinates":[-76.2806,38.8192]},"properties":{"name":"Mcdaniel"}},{"type":"Feature","geometry":{"type":"Point","coordinates":[-80.0497,41.3383]},"properties":{"name":"Sandy Lake"}},{"type":"Feature","geometry":{"type":"Point","coordinates":[-77.4616,43.2196]},"properties":{"name":"Webster"}},{"type":"Feature","geometry":{"type":"Point","coordinates":[-98.5026,34.7292]},"properties":{"name":"Medicine Park"}},{"type":"Feature","geometry":{"type":"Point","coordinates":[-95.2106,32.419]},"properties":{"name":"Tyler"}},{"type":"Feature","geometry":{"type":"Point","coordinates":[null,null]},"properties":{"name":"Turner Center"}},{"type":"Feature","geometry":{"type":"Point","coordinates":[-86.2803,39.3628]},"properties":{"name":"Morgantown"}},{"type":"Feature","geometry":{"type":"Point","coordinates":[-121.5497,39.0861]},"properties":{"name":"Olivehurst"}},{"type":"Feature","geometry":{"type":"Point","coordinates":[-95.6981,39.0142]},"properties":{"name":"Topeka"}},{"type":"Feature","geometry":{"type":"Point","coordinates":[-76.1529,42.9559]},"properties":{"name":"Nedrow"}},{"type":"Feature","geometry":{"type":"Point","coordinates":[-81.3928,38.4908]},"properties":{"name":"Blue Creek"}},{"type":"Feature","geometry":{"type":"Point","coordinates":[-91.5745,40.6612]},"properties":{"name":"Donnellson"}},{"type":"Feature","geometry":{"type":"Point","coordinates":[-84.4054,46.1815]},"properties":{"name":"Kincheloe"}},{"type":"Feature","geometry":{"type":"Point","coordinates":[-83.6913,32.8067]},"properties":{"name":"Macon"}},{"type":"Feature","geometry":{"type":"Point","coordinates":[null,null]},"properties":{"name":"Falls Church"}},{"type":"Feature","geometry":{"type":"Point","coordinates":[-99.3205,34.6484]},"properties":{"name":"Altus"}},{"type":"Feature","geometry":{"type":"Point","coordinates":[-88.0361,40.6018]},"properties":{"name":"Buckley"}},{"type":"Feature","geometry":{"type":"Point","coordinates":[null,null]},"properties":{"name":"New York"}},{"type":"Feature","geometry":{"type":"Point","coordinates":[-112.9363,37.8011]},"properties":{"name":"Summit"}},{"type":"Feature","geometry":{"type":"Point","coordinates":[-86.0254,33.7788]},"properties":{"name":"Ohatchee"}},{"type":"Feature","geometry":{"type":"Point","coordinates":[-74.5008,40.5759]},"properties":{"name":"Middlesex"}},{"type":"Feature","geometry":{"type":"Point","coordinates":[-82.1378,39.8555]},"properties":{"name":"Fultonham"}},{"type":"Feature","geometry":{"type":"Point","coordinates":[-80.634,40.3698]},"properties":{"name":"Steubenville"}},{"type":"Feature","geometry":{"type":"Point","coordinates":[-93.1019,41.5222]},"properties":{"name":"Monroe"}},{"type":"Feature","geometry":{"type":"Point","coordinates":[-84.61,39.6134]},"properties":{"name":"Camden"}},{"type":"Feature","geometry":{"type":"Point","coordinates":[-93.1588,33.7038]},"properties":{"name":"Bluff City"}},{"type":"Feature","geometry":{"type":"Point","coordinates":[-99.6918,43.6439]},"properties":{"name":"Hamill"}},{"type":"Feature","geometry":{"type":"Point","coordinates":[-88.299,44.0717]},"properties":{"name":"Stockbridge"}},{"type":"Feature","geometry":{"type":"Point","coordinates":[-96.1188,41.2335]},"properties":{"name":"Omaha"}},{"type":"Feature","geometry":{"type":"Point","coordinates":[-119.6397,36.7464]},"properties":{"name":"Fresno"}},{"type":"Feature","geometry":{"type":"Point","coordinates":[-82.743,28.1385]},"properties":{"name":"Tarpon Springs"}},{"type":"Feature","geometry":{"type":"Point","coordinates":[-95.9477,41.2657]},"properties":{"name":"Omaha"}},{"type":"Feature","geometry":{"type":"Point","coordinates":[-83.7186,38.3481]},"properties":{"name":"Plummers Landing"}},{"type":"Feature","geometry":{"type":"Point","coordinates":[-79.8366,40.0988]},"properties":{"name":"Fayette City"}},{"type":"Feature","geometry":{"type":"Point","coordinates":[-78.4343,39.0908]},"properties":{"name":"Star Tannery"}},{"type":"Feature","geometry":{"type":"Point","coordinates":[-116.5455,48.2035]},"properties":{"name":"Sagle"}},{"type":"Feature","geometry":{"type":"Point","coordinates":[-75.9007,37.4588]},"properties":{"name":"Franktown"}},{"type":"Feature","geometry":{"type":"Point","coordinates":[-95.487,41.7288]},"properties":{"name":"Panama"}},{"type":"Feature","geometry":{"type":"Point","coordinates":[-120.0212,39.3928]},"properties":{"name":"Floriston"}},{"type":"Feature","geometry":{"type":"Point","coordinates":[-71.1221,42.7711]},"properties":{"name":"Haverhill"}},{"type":"Feature","geometry":{"type":"Point","coordinates":[-86.8136,37.7523]},"properties":{"name":"Pellville"}},{"type":"Feature","geometry":{"type":"Point","coordinates":[-76.0493,40.0053]},"properties":{"name":"Kinzers"}},{"type":"Feature","geometry":{"type":"Point","coordinates":[-74.8358,41.6874]},"properties":{"name":"Kauneonga Lake"}},{"type":"Feature","geometry":{"type":"Point","coordinates":[-123.8356,45.2858]},"properties":{"name":"Cloverdale"}},{"type":"Feature","geometry":{"type":"Point","coordinates":[-78.5306,36.7317]},"properties":{"name":"Skipwith"}},{"type":"Feature","geometry":{"type":"Point","coordinates":[-89.5413,38.5487]},"properties":{"name":"Germantown"}},{"type":"Feature","geometry":{"type":"Point","coordinates":[-108.1792,36.9576]},"properties":{"name":"La Plata"}},{"type":"Feature","geometry":{"type":"Point","coordinates":[-90.0798,38.8482]},"properties":{"name":"Roxana"}},{"type":"Feature","geometry":{"type":"Point","coordinates":[-89.9729,35.1483]},"properties":{"name":"Memphis"}},{"type":"Feature","geometry":{"type":"Point","coordinates":[-101.8941,34.2789]},"properties":{"name":"Edmonson"}},{"type":"Feature","geometry":{"type":"Point","coordinates":[-75.8429,37.9845]},"properties":{"name":"Crisfield"}},{"type":"Feature","geometry":{"type":"Point","coordinates":[null,null]},"properties":{"name":"Saint Paul"}},{"type":"Feature","geometry":{"type":"Point","coordinates":[-86.3049,36.1562]},"properties":{"name":"Norene"}},{"type":"Feature","geometry":{"type":"Point","coordinates":[-86.9292,33.5446]},"properties":{"name":"Birmingham"}},{"type":"Feature","geometry":{"type":"Point","coordinates":[-74.3894,40.3847]},"properties":{"name":"Spotswood"}},{"type":"Feature","geometry":{"type":"Point","coordinates":[-83.9207,35.9606]},"properties":{"name":"Knoxville"}},{"type":"Feature","geometry":{"type":"Point","coordinates":[-87.9792,42.112]},"properties":{"name":"Arlington Heights"}},{"type":"Feature","geometry":{"type":"Point","coordinates":[-96.7041,43.4775]},"properties":{"name":"Sioux Falls"}},{"type":"Feature","geometry":{"type":"Point","coordinates":[-79.3752,41.703]},"properties":{"name":"Tidioute"}},{"type":"Feature","geometry":{"type":"Point","coordinates":[-111.5801,40.1337]},"properties":{"name":"Mapleton"}},{"type":"Feature","geometry":{"type":"Point","coordinates":[-88.141,41.7662]},"properties":{"name":"Naperville"}},{"type":"Feature","geometry":{"type":"Point","coordinates":[-115.7631,40.8324]},"properties":{"name":"Elko"}},{"type":"Feature","geometry":{"type":"Point","coordinates":[-82.7784,28.067]},"properties":{"name":"Ozona"}},{"type":"Feature","geometry":{"type":"Point","coordinates":[-98.6659,36.6881]},"properties":{"name":"Hopeton"}},{"type":"Feature","geometry":{"type":"Point","coordinates":[-93.2142,32.5192]},"properties":{"name":"Dubberly"}},{"type":"Feature","geometry":{"type":"Point","coordinates":[-97.5455,34.6379]},"properties":{"name":"Foster"}},{"type":"Feature","geometry":{"type":"Point","coordinates":[-78.5991,40.5702]},"properties":{"name":"Chest Springs"}},{"type":"Feature","geometry":{"type":"Point","coordinates":[-108.5968,47.0366]},"properties":{"name":"Teigen"}},{"type":"Feature","geometry":{"type":"Point","coordinates":[-78.3666,40.2185]},"properties":{"name":"Woodbury"}},{"type":"Feature","geometry":{"type":"Point","coordinates":[-86.3958,32.6082]},"properties":{"name":"Deatsville"}},{"type":"Feature","geometry":{"type":"Point","coordinates":[null,null]},"properties":{"name":"Twist"}},{"type":"Feature","geometry":{"type":"Point","coordinates":[-122.1987,47.8948]},"properties":{"name":"Everett"}},{"type":"Feature","geometry":{"type":"Point","coordinates":[-76.6223,40.5808]},"properties":{"name":"Williamstown"}},{"type":"Feature","geometry":{"type":"Point","coordinates":[-71.6439,41.3753]},"properties":{"name":"Wakefield"}},{"type":"Feature","geometry":{"type":"Point","coordinates":[-118.0033,33.721]},"properties":{"name":"Huntington Beach"}},{"type":"Feature","geometry":{"type":"Point","coordinates":[-93.2238,39.384]},"properties":{"name":"De Witt"}},{"type":"Feature","geometry":{"type":"Point","coordinates":[-96.7776,32.7673]},"properties":{"name":"Irving"}},{"type":"Feature","geometry":{"type":"Point","coordinates":[-92.6583,39.143]},"properties":{"name":"Fayette"}},{"type":"Feature","geometry":{"type":"Point","coordinates":[-96.7343,34.9708]},"properties":{"name":"Konawa"}},{"type":"Feature","geometry":{"type":"Point","coordinates":[-106.3,31.6948]},"properties":{"name":"El Paso"}},{"type":"Feature","geometry":{"type":"Point","coordinates":[-83.7147,42.6356]},"properties":{"name":"Hartland"}},{"type":"Feature","geometry":{"type":"Point","coordinates":[-91.2705,39.65]},"properties":{"name":"Saverton"}},{"type":"Feature","geometry":{"type":"Point","coordinates":[-82.0871,39.4978]},"properties":{"name":"Glouster"}},{"type":"Feature","geometry":{"type":"Point","coordinates":[-95.4622,34.4419]},"properties":{"name":"Snow"}},{"type":"Feature","geometry":{"type":"Point","coordinates":[-87.8061,41.9463]},"properties":{"name":"Chicago"}},{"type":"Feature","geometry":{"type":"Point","coordinates":[-89.3693,37.6501]},"properties":{"name":"Pomona"}},{"type":"Feature","geometry":{"type":"Point","coordinates":[-96.4308,33.9322]},"properties":{"name":"Calera"}},{"type":"Feature","geometry":{"type":"Point","coordinates":[-122.0238,37.3764]},"properties":{"name":"Sunnyvale"}},{"type":"Feature","geometry":{"type":"Point","coordinates":[-86.0314,30.7056]},"properties":{"name":"Argyle"}},{"type":"Feature","geometry":{"type":"Point","coordinates":[-68.4121,44.5548]},"properties":{"name":"Ellsworth"}},{"type":"Feature","geometry":{"type":"Point","coordinates":[-86.1328,39.7795]},"properties":{"name":"Indianapolis"}},{"type":"Feature","geometry":{"type":"Point","coordinates":[-75.1855,38.4296]},"properties":{"name":"Bishopville"}},{"type":"Feature","geometry":{"type":"Point","coordinates":[-86.9625,34.6796]},"properties":{"name":"Tanner"}},{"type":"Feature","geometry":{"type":"Point","coordinates":[-121.8203,42.1307]},"properties":{"name":"Midland"}},{"type":"Feature","geometry":{"type":"Point","coordinates":[-159.3085,22.106]},"properties":{"name":"Kealia"}},{"type":"Feature","geometry":{"type":"Point","coordinates":[-83.387,37.3313]},"properties":{"name":"Saul"}},{"type":"Feature","geometry":{"type":"Point","coordinates":[-88.8971,30.4035]},"properties":{"name":"Biloxi"}},{"type":"Feature","geometry":{"type":"Point","coordinates":[-74.7599,39.179]},"properties":{"name":"South Seaville"}},{"type":"Feature","geometry":{"type":"Point","coordinates":[-91.9214,34.7832]},"properties":{"name":"Lonoke"}},{"type":"Feature","geometry":{"type":"Point","coordinates":[-72.6771,41.7801]},"properties":{"name":"Hartford"}},{"type":"Feature","geometry":{"type":"Point","coordinates":[-108.0692,36.7745]},"properties":{"name":"Farmington"}},{"type":"Feature","geometry":{"type":"Point","coordinates":[-79.9871,35.2274]},"properties":{"name":"Mount Gilead"}},{"type":"Feature","geometry":{"type":"Point","coordinates":[-81.7843,37.4126]},"properties":{"name":"Avondale"}},{"type":"Feature","geometry":{"type":"Point","coordinates":[-120.3185,37.2908]},"properties":{"name":"Planada"}},{"type":"Feature","geometry":{"type":"Point","coordinates":[-96.7637,38.789]},"properties":{"name":"White City"}},{"type":"Feature","geometry":{"type":"Point","coordinates":[null,null]},"properties":{"name":"Peoples"}},{"type":"Feature","geometry":{"type":"Point","coordinates":[null,null]},"properties":{"name":"True"}},{"type":"Feature","geometry":{"type":"Point","coordinates":[-97.5323,30.3388]},"properties":{"name":"Manor"}},{"type":"Feature","geometry":{"type":"Point","coordinates":[-84.3883,33.7984]},"properties":{"name":"Atlanta"}},{"type":"Feature","geometry":{"type":"Point","coordinates":[-113.912,44.6044]},"properties":{"name":"May"}},{"type":"Feature","geometry":{"type":"Point","coordinates":[-89.996,29.9168]},"properties":{"name":"New Orleans"}},{"type":"Feature","geometry":{"type":"Point","coordinates":[-77.0613,39.084]},"properties":{"name":"Silver Spring"}},{"type":"Feature","geometry":{"type":"Point","coordinates":[-76.1157,40.2297]},"properties":{"name":"Denver"}},{"type":"Feature","geometry":{"type":"Point","coordinates":[-74.4064,40.4284]},"properties":{"name":"East Brunswick"}},{"type":"Feature","geometry":{"type":"Point","coordinates":[-81.6831,30.3449]},"properties":{"name":"Jacksonville"}},{"type":"Feature","geometry":{"type":"Point","coordinates":[-80.1284,37.3696]},"properties":{"name":"Catawba"}},{"type":"Feature","geometry":{"type":"Point","coordinates":[-82.7343,27.916]},"properties":{"name":"Clearwater"}},{"type":"Feature","geometry":{"type":"Point","coordinates":[-82.8278,34.8283]},"properties":{"name":"Six Mile"}},{"type":"Feature","geometry":{"type":"Point","coordinates":[-111.8133,40.6772]},"properties":{"name":"Salt Lake City"}},{"type":"Feature","geometry":{"type":"Point","coordinates":[-97.1324,34.0539]},"properties":{"name":"Overbrook"}},{"type":"Feature","geometry":{"type":"Point","coordinates":[-76.1717,41.7718]},"properties":{"name":"Stevensville"}},{"type":"Feature","geometry":{"type":"Point","coordinates":[-97.2915,32.7714]},"properties":{"name":"Fort Worth"}},{"type":"Feature","geometry":{"type":"Point","coordinates":[-91.266,43.3661]},"properties":{"name":"Lansing"}},{"type":"Feature","geometry":{"type":"Point","coordinates":[-97.944,33.8164]},"properties":{"name":"Ringgold"}},{"type":"Feature","geometry":{"type":"Point","coordinates":[-121.3238,38.0024]},"properties":{"name":"Stockton"}},{"type":"Feature","geometry":{"type":"Point","coordinates":[-86.1245,39.9712]},"properties":{"name":"Carmel"}},{"type":"Feature","geometry":{"type":"Point","coordinates":[-96.6746,38.0298]},"properties":{"name":"Cassoday"}},{"type":"Feature","geometry":{"type":"Point","coordinates":[-122.3612,47.3104]},"properties":{"name":"Federal Way"}},{"type":"Feature","geometry":{"type":"Point","coordinates":[-81.6728,41.6857]},"properties":{"name":"Cleveland"}},{"type":"Feature","geometry":{"type":"Point","coordinates":[-100.7254,45.4725]},"properties":{"name":"Trail City"}},{"type":"Feature","geometry":{"type":"Point","coordinates":[-76.2927,42.5542]},"properties":{"name":"Mc Lean"}},{"type":"Feature","geometry":{"type":"Point","coordinates":[-111.9554,33.6165]},"properties":{"name":"Scottsdale"}},{"type":"Feature","geometry":{"type":"Point","coordinates":[-93.7526,32.6076]},"properties":{"name":"Shreveport"}},{"type":"Feature","geometry":{"type":"Point","coordinates":[-114.785,32.5545]},"properties":{"name":"Gadsden"}},{"type":"Feature","geometry":{"type":"Point","coordinates":[-70.1949,41.6739]},"properties":{"name":"South Yarmouth"}},{"type":"Feature","geometry":{"type":"Point","coordinates":[-83.418,33.9461]},"properties":{"name":"Athens"}},{"type":"Feature","geometry":{"type":"Point","coordinates":[-77.4562,41.432]},"properties":{"name":"Jersey Shore"}},{"type":"Feature","geometry":{"type":"Point","coordinates":[-91.6788,37.7825]},"properties":{"name":"Lake Spring"}},{"type":"Feature","geometry":{"type":"Point","coordinates":[-92.1654,31.3574]},"properties":{"name":"Deville"}},{"type":"Feature","geometry":{"type":"Point","coordinates":[-96.397,40.5838]},"properties":{"name":"Douglas"}},{"type":"Feature","geometry":{"type":"Point","coordinates":[-77.5775,42.6776]},"properties":{"name":"Springwater"}},{"type":"Feature","geometry":{"type":"Point","coordinates":[null,null]},"properties":{"name":"San Bernardino"}},{"type":"Feature","geometry":{"type":"Point","coordinates":[-95.3382,29.6686]},"properties":{"name":"Houston"}},{"type":"Feature","geometry":{"type":"Point","coordinates":[-79.7551,39.8229]},"properties":{"name":"Fairchance"}},{"type":"Feature","geometry":{"type":"Point","coordinates":[-95.7389,41.047]},"properties":{"name":"Glenwood"}},{"type":"Feature","geometry":{"type":"Point","coordinates":[-96.125,31.0705]},"properties":{"name":"Normangee"}},{"type":"Feature","geometry":{"type":"Point","coordinates":[-74.0208,40.7681]},"properties":{"name":"Weehawken"}},{"type":"Feature","geometry":{"type":"Point","coordinates":[-89.5661,38.0427]},"properties":{"name":"Cutler"}},{"type":"Feature","geometry":{"type":"Point","coordinates":[-86.1328,39.7795]},"properties":{"name":"Indianapolis"}},{"type":"Feature","geometry":{"type":"Point","coordinates":[-95.9894,43.3439]},"properties":{"name":"George"}},{"type":"Feature","geometry":{"type":"Point","coordinates":[-85.0707,41.0938]},"properties":{"name":"Fort Wayne"}},{"type":"Feature","geometry":{"type":"Point","coordinates":[-83.186,32.2084]},"properties":{"name":"Eastman"}},{"type":"Feature","geometry":{"type":"Point","coordinates":[-73.374,42.5487]},"properties":{"name":"Stephentown"}},{"type":"Feature","geometry":{"type":"Point","coordinates":[-73.8241,40.7667]},"properties":{"name":"Flushing"}},{"type":"Feature","geometry":{"type":"Point","coordinates":[-80.9417,33.0377]},"properties":{"name":"Lodge"}},{"type":"Feature","geometry":{"type":"Point","coordinates":[-97.3002,31.6673]},"properties":{"name":"China Spring"}},{"type":"Feature","geometry":{"type":"Point","coordinates":[-87.8251,35.7467]},"properties":{"name":"Lobelville"}},{"type":"Feature","geometry":{"type":"Point","coordinates":[-132.3529,56.4335]},"properties":{"name":"Wrangell"}},{"type":"Feature","geometry":{"type":"Point","coordinates":[-71.7552,42.1266]},"properties":{"name":"Sutton"}},{"type":"Feature","geometry":{"type":"Point","coordinates":[-121.6722,37.1525]},"properties":{"name":"Morgan Hill"}},{"type":"Feature","geometry":{"type":"Point","coordinates":[-71.4476,41.7026]},"properties":{"name":"Warwick"}},{"type":"Feature","geometry":{"type":"Point","coordinates":[-107.8692,46.5986]},"properties":{"name":"Melstone"}},{"type":"Feature","geometry":{"type":"Point","coordinates":[-82.2797,37.5964]},"properties":{"name":"Huddy"}},{"type":"Feature","geometry":{"type":"Point","coordinates":[-90.844,39.6996]},"properties":{"name":"New Salem"}},{"type":"Feature","geometry":{"type":"Point","coordinates":[-95.9378,41.2586]},"properties":{"name":"Omaha"}},{"type":"Feature","geometry":{"type":"Point","coordinates":[-90.1646,42.8547]},"properties":{"name":"Mineral Point"}},{"type":"Feature","geometry":{"type":"Point","coordinates":[-97.6396,30.296]},"properties":{"name":"Austin"}},{"type":"Feature","geometry":{"type":"Point","coordinates":[-99.7182,32.4682]},"properties":{"name":"Abilene"}},{"type":"Feature","geometry":{"type":"Point","coordinates":[-89.1767,34.4352]},"properties":{"name":"Etta"}},{"type":"Feature","geometry":{"type":"Point","coordinates":[-84.8476,35.2023]},"properties":{"name":"Cleveland"}},{"type":"Feature","geometry":{"type":"Point","coordinates":[-87.9031,42.6967]},"properties":{"name":"Sturtevant"}},{"type":"Feature","geometry":{"type":"Point","coordinates":[-76.6535,39.9124]},"properties":{"name":"Dallastown"}},{"type":"Feature","geometry":{"type":"Point","coordinates":[-106.931,38.5511]},"properties":{"name":"Gunnison"}},{"type":"Feature","geometry":{"type":"Point","coordinates":[-118.0371,34.0791]},"properties":{"name":"El Monte"}},{"type":"Feature","geometry":{"type":"Point","coordinates":[-85.8441,35.314]},"properties":{"name":"Pelham"}},{"type":"Feature","geometry":{"type":"Point","coordinates":[-72.7188,41.7918]},"properties":{"name":"Hartford"}},{"type":"Feature","geometry":{"type":"Point","coordinates":[-124.2039,47.2387]},"properties":{"name":"Moclips"}},{"type":"Feature","geometry":{"type":"Point","coordinates":[-95.8979,36.2393]},"properties":{"name":"Tulsa"}},{"type":"Feature","geometry":{"type":"Point","coordinates":[-111.8364,40.7658]},"properties":{"name":"Salt Lake City"}},{"type":"Feature","geometry":{"type":"Point","coordinates":[-117.0565,32.6084]},"properties":{"name":"Chula Vista"}},{"type":"Feature","geometry":{"type":"Point","coordinates":[-120.4092,40.4073]},"properties":{"name":"Litchfield"}},{"type":"Feature","geometry":{"type":"Point","coordinates":[-72.2686,43.1956]},"properties":{"name":"South Acworth"}},{"type":"Feature","geometry":{"type":"Point","coordinates":[-96.1234,31.1593]},"properties":{"name":"Flynn"}},{"type":"Feature","geometry":{"type":"Point","coordinates":[null,null]},"properties":{"name":"Jacksonville"}},{"type":"Feature","geometry":{"type":"Point","coordinates":[-105.1055,40.2993]},"properties":{"name":"Berthoud"}},{"type":"Feature","geometry":{"type":"Point","coordinates":[-96.879,33.659]},"properties":{"name":"Whitesboro"}},{"type":"Feature","geometry":{"type":"Point","coordinates":[-80.507,25.596]},"properties":{"name":"Miami"}},{"type":"Feature","geometry":{"type":"Point","coordinates":[-86.1064,40.6147]},"properties":{"name":"Miami"}},{"type":"Feature","geometry":{"type":"Point","coordinates":[-97.015,32.9546]},"properties":{"name":"Coppell"}},{"type":"Feature","geometry":{"type":"Point","coordinates":[-82.4452,38.4192]},"properties":{"name":"Huntington"}},{"type":"Feature","geometry":{"type":"Point","coordinates":[null,null]},"properties":{"name":"Laneburg"}},{"type":"Feature","geometry":{"type":"Point","coordinates":[-72.9282,41.3082]},"properties":{"name":"New Haven"}},{"type":"Feature","geometry":{"type":"Point","coordinates":[-76.8708,41.0179]},"properties":{"name":"West Milton"}},{"type":"Feature","geometry":{"type":"Point","coordinates":[-80.8342,38.3184]},"properties":{"name":"Gilboa"}},{"type":"Feature","geometry":{"type":"Point","coordinates":[-149.5085,61.3114]},"properties":{"name":"Eagle River"}},{"type":"Feature","geometry":{"type":"Point","coordinates":[-94.7334,43.2277]},"properties":{"name":"Graettinger"}},{"type":"Feature","geometry":{"type":"Point","coordinates":[-75.2701,40.8518]},"properties":{"name":"Pen Argyl"}},{"type":"Feature","geometry":{"type":"Point","coordinates":[-122.9139,46.2783]},"properties":{"name":"Castle Rock"}},{"type":"Feature","geometry":{"type":"Point","coordinates":[-96.8928,28.4587]},"properties":{"name":"Tivoli"}},{"type":"Feature","geometry":{"type":"Point","coordinates":[-80.1859,33.3364]},"properties":{"name":"Cross"}},{"type":"Feature","geometry":{"type":"Point","coordinates":[-73.466,44.6927]},"properties":{"name":"Plattsburgh"}},{"type":"Feature","geometry":{"type":"Point","coordinates":[-85.4822,41.457]},"properties":{"name":"Wawaka"}},{"type":"Feature","geometry":{"type":"Point","coordinates":[-101.9367,33.5924]},"properties":{"name":"Lubbock"}},{"type":"Feature","geometry":{"type":"Point","coordinates":[-84.5039,42.0548]},"properties":{"name":"Moscow"}},{"type":"Feature","geometry":{"type":"Point","coordinates":[-76.1424,39.0025]},"properties":{"name":"Queenstown"}},{"type":"Feature","geometry":{"type":"Point","coordinates":[-81.3896,32.314]},"properties":{"name":"Guyton"}},{"type":"Feature","geometry":{"type":"Point","coordinates":[-94.4141,31.6427]},"properties":{"name":"Martinsville"}},{"type":"Feature","geometry":{"type":"Point","coordinates":[-97.5095,34.449]},"properties":{"name":"Ratliff City"}},{"type":"Feature","geometry":{"type":"Point","coordinates":[-93.2029,44.7497]},"properties":{"name":"Saint Paul"}},{"type":"Feature","geometry":{"type":"Point","coordinates":[-91.7216,39.9962]},"properties":{"name":"Ewing"}},{"type":"Feature","geometry":{"type":"Point","coordinates":[-77.3121,40.4096]},"properties":{"name":"Elliottsburg"}},{"type":"Feature","geometry":{"type":"Point","coordinates":[-75.2498,39.7857]},"properties":{"name":"Mickleton"}},{"type":"Feature","geometry":{"type":"Point","coordinates":[-87.1898,33.311]},"properties":{"name":"Abernant"}},{"type":"Feature","geometry":{"type":"Point","coordinates":[-134.4197,58.3019]},"properties":{"name":"Juneau"}},{"type":"Feature","geometry":{"type":"Point","coordinates":[-83.7564,38.1532]},"properties":{"name":"Owingsville"}},{"type":"Feature","geometry":{"type":"Point","coordinates":[-73.844,41.0897]},"properties":{"name":"Tarrytown"}},{"type":"Feature","geometry":{"type":"Point","coordinates":[-87.4532,41.5878]},"properties":{"name":"Hammond"}},{"type":"Feature","geometry":{"type":"Point","coordinates":[-85.0375,37.0551]},"properties":{"name":"Russell Springs"}},{"type":"Feature","geometry":{"type":"Point","coordinates":[-72.5676,42.4539]},"properties":{"name":"Sunderland"}},{"type":"Feature","geometry":{"type":"Point","coordinates":[-77.5613,37.3897]},"properties":{"name":"Richmond"}},{"type":"Feature","geometry":{"type":"Point","coordinates":[-82.1674,37.5969]},"properties":{"name":"Mc Carr"}},{"type":"Feature","geometry":{"type":"Point","coordinates":[-121.324,38.0025]},"properties":{"name":"Stockton"}},{"type":"Feature","geometry":{"type":"Point","coordinates":[-98.9229,31.7874]},"properties":{"name":"Early"}},{"type":"Feature","geometry":{"type":"Point","coordinates":[null,null]},"properties":{"name":"Tampa"}},{"type":"Feature","geometry":{"type":"Point","coordinates":[-76.979,36.9757]},"properties":{"name":"Wakefield"}},{"type":"Feature","geometry":{"type":"Point","coordinates":[-97.6521,37.2578]},"properties":{"name":"Milan"}},{"type":"Feature","geometry":{"type":"Point","coordinates":[-87.6833,34.6874]},"properties":{"name":"Tuscumbia"}},{"type":"Feature","geometry":{"type":"Point","coordinates":[-90.8813,34.5394]},"properties":{"name":"Poplar Grove"}},{"type":"Feature","geometry":{"type":"Point","coordinates":[-93.8293,32.8251]},"properties":{"name":"Gilliam"}},{"type":"Feature","geometry":{"type":"Point","coordinates":[-94.5938,29.8752]},"properties":{"name":"Hankamer"}},{"type":"Feature","geometry":{"type":"Point","coordinates":[-92.328,39.7428]},"properties":{"name":"Anabel"}},{"type":"Feature","geometry":{"type":"Point","coordinates":[-87.575,37.9971]},"properties":{"name":"Evansville"}},{"type":"Feature","geometry":{"type":"Point","coordinates":[-75.0961,40.2566]},"properties":{"name":"Jamison"}},{"type":"Feature","geometry":{"type":"Point","coordinates":[-93.5722,41.6727]},"properties":{"name":"Des Moines"}},{"type":"Feature","geometry":{"type":"Point","coordinates":[-86.2694,35.0512]},"properties":{"name":"Huntland"}},{"type":"Feature","geometry":{"type":"Point","coordinates":[-95.4903,29.7422]},"properties":{"name":"Houston"}},{"type":"Feature","geometry":{"type":"Point","coordinates":[-89.0523,37.8991]},"properties":{"name":"Zeigler"}},{"type":"Feature","geometry":{"type":"Point","coordinates":[-80.7343,39.2893]},"properties":{"name":"Smithburg"}},{"type":"Feature","geometry":{"type":"Point","coordinates":[-84.2738,32.4325]},"properties":{"name":"Rupert"}},{"type":"Feature","geometry":{"type":"Point","coordinates":[-104.5,40.4696]},"properties":{"name":"Gill"}},{"type":"Feature","geometry":{"type":"Point","coordinates":[-71.0871,42.0645]},"properties":{"name":"North Easton"}},{"type":"Feature","geometry":{"type":"Point","coordinates":[-75.1617,39.3762]},"properties":{"name":"Bridgeton"}},{"type":"Feature","geometry":{"type":"Point","coordinates":[-94.6416,40.795]},"properties":{"name":"Sharpsburg"}},{"type":"Feature","geometry":{"type":"Point","coordinates":[-70.9196,42.3389]},"properties":{"name":"Boston"}},{"type":"Feature","geometry":{"type":"Point","coordinates":[-107.4578,36.2092]},"properties":{"name":"Counselor"}},{"type":"Feature","geometry":{"type":"Point","coordinates":[-92.5089,31.3048]},"properties":{"name":"Alexandria"}},{"type":"Feature","geometry":{"type":"Point","coordinates":[-166.1373,66.2306]},"properties":{"name":"Shishmaref"}},{"type":"Feature","geometry":{"type":"Point","coordinates":[-94.4191,39.2461]},"properties":{"name":"Liberty"}},{"type":"Feature","geometry":{"type":"Point","coordinates":[-94.7378,30.0946]},"properties":{"name":"Liberty"}},{"type":"Feature","geometry":{"type":"Point","coordinates":[-77.1458,39.2335]},"properties":{"name":"Gaithersburg"}},{"type":"Feature","geometry":{"type":"Point","coordinates":[null,null]},"properties":{"name":"Waterview"}},{"type":"Feature","geometry":{"type":"Point","coordinates":[-92.0068,31.6377]},"properties":{"name":"Rhinehart"}},{"type":"Feature","geometry":{"type":"Point","coordinates":[-91.7538,39.8359]},"properties":{"name":"Philadelphia"}},{"type":"Feature","geometry":{"type":"Point","coordinates":[-82.5871,32.3869]},"properties":{"name":"Soperton"}},{"type":"Feature","geometry":{"type":"Point","coordinates":[-85.055,38.9962]},"properties":{"name":"Dillsboro"}},{"type":"Feature","geometry":{"type":"Point","coordinates":[-80.8226,35.5774]},"properties":{"name":"Mooresville"}},{"type":"Feature","geometry":{"type":"Point","coordinates":[-91.6753,40.5172]},"properties":{"name":"Revere"}},{"type":"Feature","geometry":{"type":"Point","coordinates":[-90.1784,44.6615]},"properties":{"name":"Marshfield"}},{"type":"Feature","geometry":{"type":"Point","coordinates":[-153.3039,57.2028]},"properties":{"name":"Old Harbor"}},{"type":"Feature","geometry":{"type":"Point","coordinates":[-102.0885,42.0211]},"properties":{"name":"Bingham"}},{"type":"Feature","geometry":{"type":"Point","coordinates":[-92.5799,38.1637]},"properties":{"name":"Kaiser"}},{"type":"Feature","geometry":{"type":"Point","coordinates":[-83.2536,42.2941]},"properties":{"name":"Dearborn"}},{"type":"Feature","geometry":{"type":"Point","coordinates":[-89.0584,32.0167]},"properties":{"name":"Paulding"}},{"type":"Feature","geometry":{"type":"Point","coordinates":[-83.5638,35.7922]},"properties":{"name":"Pigeon Forge"}},{"type":"Feature","geometry":{"type":"Point","coordinates":[-92.096,43.6641]},"properties":{"name":"Preston"}},{"type":"Feature","geometry":{"type":"Point","coordinates":[-120.4627,38.3793]},"properties":{"name":"Wilseyville"}},{"type":"Feature","geometry":{"type":"Point","coordinates":[-83.8296,41.3009]},"properties":{"name":"Milton Center"}},{"type":"Feature","geometry":{"type":"Point","coordinates":[-80.9288,34.3167]},"properties":{"name":"Ridgeway"}},{"type":"Feature","geometry":{"type":"Point","coordinates":[null,null]},"properties":{"name":"Carlton"}},{"type":"Feature","geometry":{"type":"Point","coordinates":[-93.1928,39.5011]},"properties":{"name":"Triplett"}},{"type":"Feature","geometry":{"type":"Point","coordinates":[-76.8683,40.8224]},"properties":{"name":"Selinsgrove"}},{"type":"Feature","geometry":{"type":"Point","coordinates":[-80.6081,28.0836]},"properties":{"name":"Melbourne"}},{"type":"Feature","geometry":{"type":"Point","coordinates":[-90.1642,39.1546]},"properties":{"name":"Fidelity"}},{"type":"Feature","geometry":{"type":"Point","coordinates":[-82.586,42.585]},"properties":{"name":"Harsens Island"}},{"type":"Feature","geometry":{"type":"Point","coordinates":[-90.9289,35.6291]},"properties":{"name":"Weiner"}},{"type":"Feature","geometry":{"type":"Point","coordinates":[-122.4096,37.719]},"properties":{"name":"San Francisco"}},{"type":"Feature","geometry":{"type":"Point","coordinates":[-72.8245,43.9849]},"properties":{"name":"Granville"}},{"type":"Feature","geometry":{"type":"Point","coordinates":[-86.967,39.8366]},"properties":{"name":"Russellville"}},{"type":"Feature","geometry":{"type":"Point","coordinates":[-82.6687,40.0009]},"properties":{"name":"Pataskala"}},{"type":"Feature","geometry":{"type":"Point","coordinates":[-82.0466,37.8035]},"properties":{"name":"Whitman"}},{"type":"Feature","geometry":{"type":"Point","coordinates":[-70.7212,43.3254]},"properties":{"name":"North Berwick"}},{"type":"Feature","geometry":{"type":"Point","coordinates":[-88.183,40.2402]},"properties":{"name":"Thomasboro"}},{"type":"Feature","geometry":{"type":"Point","coordinates":[-108.819,35.7837]},"properties":{"name":"Mexican Springs"}},{"type":"Feature","geometry":{"type":"Point","coordinates":[-83.1912,37.2983]},"properties":{"name":"Hazard"}},{"type":"Feature","geometry":{"type":"Point","coordinates":[-73.1463,41.8963]},"properties":{"name":"Winchester Center"}},{"type":"Feature","geometry":{"type":"Point","coordinates":[-121.4944,38.5816]},"properties":{"name":"Sacramento"}},{"type":"Feature","geometry":{"type":"Point","coordinates":[-98.5026,34.7292]},"properties":{"name":"Medicine Park"}},{"type":"Feature","geometry":{"type":"Point","coordinates":[null,null]},"properties":{"name":"Red Owl"}},{"type":"Feature","geometry":{"type":"Point","coordinates":[-112.8603,33.8944]},"properties":{"name":"Wickenburg"}},{"type":"Feature","geometry":{"type":"Point","coordinates":[-76.1969,40.0376]},"properties":{"name":"Smoketown"}},{"type":"Feature","geometry":{"type":"Point","coordinates":[-76.6205,39.2847]},"properties":{"name":"Baltimore"}},{"type":"Feature","geometry":{"type":"Point","coordinates":[-79.1865,39.9373]},"properties":{"name":"Rockwood"}},{"type":"Feature","geometry":{"type":"Point","coordinates":[-94.221,34.5814]},"properties":{"name":"Mena"}},{"type":"Feature","geometry":{"type":"Point","coordinates":[null,null]},"properties":{"name":"New Orleans"}},{"type":"Feature","geometry":{"type":"Point","coordinates":[-90.4924,38.5576]},"properties":{"name":"Valley Park"}},{"type":"Feature","geometry":{"type":"Point","coordinates":[-84.3319,39.877]},"properties":{"name":"Englewood"}},{"type":"Feature","geometry":{"type":"Point","coordinates":[-104.0241,38.7642]},"properties":{"name":"Rush"}},{"type":"Feature","geometry":{"type":"Point","coordinates":[-75.1507,40.7079]},"properties":{"name":"Phillipsburg"}},{"type":"Feature","geometry":{"type":"Point","coordinates":[-74.9346,41.9609]},"properties":{"name":"Roscoe"}},{"type":"Feature","geometry":{"type":"Point","coordinates":[-78.3244,40.2951]},"properties":{"name":"Martinsburg"}},{"type":"Feature","geometry":{"type":"Point","coordinates":[-79.9739,40.4999]},"properties":{"name":"Pittsburgh"}},{"type":"Feature","geometry":{"type":"Point","coordinates":[-96.4029,42.4972]},"properties":{"name":"Sioux City"}},{"type":"Feature","geometry":{"type":"Point","coordinates":[-86.7812,33.2063]},"properties":{"name":"Saginaw"}},{"type":"Feature","geometry":{"type":"Point","coordinates":[-83.2454,32.6057]},"properties":{"name":"Danville"}},{"type":"Feature","geometry":{"type":"Point","coordinates":[-87.598,41.6257]},"properties":{"name":"Dolton"}},{"type":"Feature","geometry":{"type":"Point","coordinates":[-94.4191,39.2461]},"properties":{"name":"Liberty"}},{"type":"Feature","geometry":{"type":"Point","coordinates":[-91.7724,41.6507]},"properties":{"name":"Oxford"}},{"type":"Feature","geometry":{"type":"Point","coordinates":[-71.1162,42.3329]},"properties":{"name":"Brookline Village"}},{"type":"Feature","geometry":{"type":"Point","coordinates":[-108.3699,40.6738]},"properties":{"name":"Maybell"}},{"type":"Feature","geometry":{"type":"Point","coordinates":[-161.8164,59.0131]},"properties":{"name":"Platinum"}},{"type":"Feature","geometry":{"type":"Point","coordinates":[-106.2797,45.5827]},"properties":{"name":"Ashland"}},{"type":"Feature","geometry":{"type":"Point","coordinates":[-108.2465,48.395]},"properties":{"name":"Dodson"}},{"type":"Feature","geometry":{"type":"Point","coordinates":[null,null]},"properties":{"name":"Toledo"}},{"type":"Feature","geometry":{"type":"Point","coordinates":[-88.5999,41.9232]},"properties":{"name":"Maple Park"}},{"type":"Feature","geometry":{"type":"Point","coordinates":[-85.2649,43.8888]},"properties":{"name":"Evart"}},{"type":"Feature","geometry":{"type":"Point","coordinates":[-118.1859,34.0451]},"properties":{"name":"Los Angeles"}},{"type":"Feature","geometry":{"type":"Point","coordinates":[-94.5387,40.2293]},"properties":{"name":"Stanberry"}},{"type":"Feature","geometry":{"type":"Point","coordinates":[-88.0309,45.7653]},"properties":{"name":"Niagara"}},{"type":"Feature","geometry":{"type":"Point","coordinates":[-83.894,34.2372]},"properties":{"name":"Oakwood"}},{"type":"Feature","geometry":{"type":"Point","coordinates":[-82.2774,38.4134]},"properties":{"name":"Huntington"}},{"type":"Feature","geometry":{"type":"Point","coordinates":[-97.2915,32.7714]},"properties":{"name":"Fort Worth"}},{"type":"Feature","geometry":{"type":"Point","coordinates":[-100.8754,47.7622]},"properties":{"name":"Ruso"}},{"type":"Feature","geometry":{"type":"Point","coordinates":[-96.4735,32.0624]},"properties":{"name":"Corsicana"}},{"type":"Feature","geometry":{"type":"Point","coordinates":[-94.7495,39.0966]},"properties":{"name":"Kansas City"}},{"type":"Feature","geometry":{"type":"Point","coordinates":[-89.9585,30.0487]},"properties":{"name":"New Orleans"}},{"type":"Feature","geometry":{"type":"Point","coordinates":[-79.5246,38.9234]},"properties":{"name":"Harman"}},{"type":"Feature","geometry":{"type":"Point","coordinates":[-97.0237,33.1219]},"properties":{"name":"Lake Dallas"}},{"type":"Feature","geometry":{"type":"Point","coordinates":[-77.967,40.4025]},"properties":{"name":"Mc Connellstown"}},{"type":"Feature","geometry":{"type":"Point","coordinates":[-78.8903,36.1566]},"properties":{"name":"Bahama"}},{"type":"Feature","geometry":{"type":"Point","coordinates":[-89.606,39.7495]},"properties":{"name":"Springfield"}},{"type":"Feature","geometry":{"type":"Point","coordinates":[-76.6289,43.2661]},"properties":{"name":"Martville"}},{"type":"Feature","geometry":{"type":"Point","coordinates":[-67.4722,45.1035]},"properties":{"name":"Baileyville"}},{"type":"Feature","geometry":{"type":"Point","coordinates":[-73.973,44.8043]},"properties":{"name":"Lyon Mountain"}},{"type":"Feature","geometry":{"type":"Point","coordinates":[-89.0209,36.8634]},"properties":{"name":"Bardwell"}},{"type":"Feature","geometry":{"type":"Point","coordinates":[-92.3925,34.7519]},"properties":{"name":"Little Rock"}},{"type":"Feature","geometry":{"type":"Point","coordinates":[-82.2657,38.6135]},"properties":{"name":"Crown City"}},{"type":"Feature","geometry":{"type":"Point","coordinates":[null,null]},"properties":{"name":"Chaffee"}},{"type":"Feature","geometry":{"type":"Point","coordinates":[-76.6081,39.9026]},"properties":{"name":"Red Lion"}},{"type":"Feature","geometry":{"type":"Point","coordinates":[-96.1655,42.9626]},"properties":{"name":"Maurice"}},{"type":"Feature","geometry":{"type":"Point","coordinates":[-93.021,42.8318]},"properties":{"name":"Aredale"}},{"type":"Feature","geometry":{"type":"Point","coordinates":[-77.9216,42.8943]},"properties":{"name":"Linwood"}},{"type":"Feature","geometry":{"type":"Point","coordinates":[-78.3072,37.1234]},"properties":{"name":"Green Bay"}},{"type":"Feature","geometry":{"type":"Point","coordinates":[-88.5857,39.4302]},"properties":{"name":"Windsor"}},{"type":"Feature","geometry":{"type":"Point","coordinates":[-81.814,36.4657]},"properties":{"name":"Mountain City"}},{"type":"Feature","geometry":{"type":"Point","coordinates":[-76.9395,40.765]},"properties":{"name":"Freeburg"}},{"type":"Feature","geometry":{"type":"Point","coordinates":[-75.1264,42.6068]},"properties":{"name":"Mount Vision"}},{"type":"Feature","geometry":{"type":"Point","coordinates":[-82.8044,39.8349]},"properties":{"name":"Canal Winchester"}},{"type":"Feature","geometry":{"type":"Point","coordinates":[-77.3531,35.5885]},"properties":{"name":"Greenville"}},{"type":"Feature","geometry":{"type":"Point","coordinates":[-86.8292,36.2744]},"properties":{"name":"Whites Creek"}},{"type":"Feature","geometry":{"type":"Point","coordinates":[-96.1918,33.922]},"properties":{"name":"Durant"}},{"type":"Feature","geometry":{"type":"Point","coordinates":[-79.9814,39.7612]},"properties":{"name":"Bobtown"}},{"type":"Feature","geometry":{"type":"Point","coordinates":[-82.4708,32.8632]},"properties":{"name":"Bartow"}},{"type":"Feature","geometry":{"type":"Point","coordinates":[-110.0435,34.7814]},"properties":{"name":"Woodruff"}},{"type":"Feature","geometry":{"type":"Point","coordinates":[-93.321,31.7715]},"properties":{"name":"Robeline"}},{"type":"Feature","geometry":{"type":"Point","coordinates":[-93.3002,40.5492]},"properties":{"name":"Powersville"}},{"type":"Feature","geometry":{"type":"Point","coordinates":[-89.2915,38.6018]},"properties":{"name":"Huey"}},{"type":"Feature","geometry":{"type":"Point","coordinates":[-80.6498,38.7232]},"properties":{"name":"Flatwoods"}},{"type":"Feature","geometry":{"type":"Point","coordinates":[-73.8087,44.6164]},"properties":{"name":"Redford"}}]